building_name,demand,latitude,longitude
760 SPRING STREET,30,33.77780591,-84.38983261
CLOUGH UNDERGRADUATE LEARNING COMMONS,758,33.77543753,-84.39390424
COLLEGE OF COMPUTING,421,33.77755663,-84.39758288
HOWEY PHYSICS BUILDING,991,33.77769409,-84.39847445
SCHELLER COLLEGE OF BUSINESS,1232,33.77665282,-84.38724716
